<?xml version="1.0" encoding="utf-8"?>
<ArrayOfCustomer xmlns:xsi="http://www.w3.org/2001/XMLSchema-instance" xmlns:xsd="http://www.w3.org/2001/XMLSchema">
  <Customer>
    <Id>2</Id>
    <Name>Shlomi</Name>
    <Phone>0546273849</Phone>
    <Longitude>34.71327904749814</Longitude>
    <Lattitude>32.12357120710591</Lattitude>
  </Customer>
  <Customer>
    <Id>18</Id>
    <Name>Miki</Name>
    <Phone>0546223849</Phone>
    <Longitude>34.70992923200127</Longitude>
    <Lattitude>32.14468824008698</Lattitude>
  </Customer>
  <Customer>
    <Id>21</Id>
    <Name>Bibi</Name>
    <Phone>0546211849</Phone>
    <Longitude>34.744331820748904</Longitude>
    <Lattitude>32.23650431213272</Lattitude>
  </Customer>
  <Customer>
    <Id>30</Id>
    <Name>Miki</Name>
    <Phone>0546413849</Phone>
    <Longitude>34.67002897356638</Longitude>
    <Lattitude>32.13881244388819</Lattitude>
  </Customer>
  <Customer>
    <Id>42</Id>
    <Name>Shlomi</Name>
    <Phone>0546254849</Phone>
    <Longitude>34.63143775455255</Longitude>
    <Lattitude>32.13138447254029</Lattitude>
  </Customer>
  <Customer>
    <Id>59</Id>
    <Name>Shalom</Name>
    <Phone>0546273878</Phone>
    <Longitude>34.612497658754</Longitude>
    <Lattitude>32.211718197312074</Lattitude>
  </Customer>
  <Customer>
    <Id>67</Id>
    <Name>Shimon</Name>
    <Phone>0547273849</Phone>
    <Longitude>34.70567147594675</Longitude>
    <Lattitude>32.150358798983675</Lattitude>
  </Customer>
  <Customer>
    <Id>71</Id>
    <Name>Moti</Name>
    <Phone>0546273749</Phone>
    <Longitude>34.61257776832794</Longitude>
    <Lattitude>32.046988083770025</Lattitude>
  </Customer>
  <Customer>
    <Id>89</Id>
    <Name>Bibi</Name>
    <Phone>0546277849</Phone>
    <Longitude>34.7094274442454</Longitude>
    <Lattitude>32.24216993245863</Lattitude>
  </Customer>
  <Customer>
    <Id>90</Id>
    <Name>Chaim</Name>
    <Phone>0546273847</Phone>
    <Longitude>34.52679229447469</Longitude>
    <Lattitude>32.24594014568531</Lattitude>
  </Customer>
  <Customer>
    <Id>30624</Id>
    <Name>Dan</Name>
    <Phone>0998899888</Phone>
    <Longitude>35.108572</Longitude>
    <Lattitude>32.171439</Lattitude>
  </Customer>
  <Customer>
    <Id>205918790</Id>
    <Name>Avishay</Name>
    <Phone>0543451233</Phone>
    <Longitude>34.828505</Longitude>
    <Lattitude>32.080775</Lattitude>
  </Customer>
  <Customer>
    <Id>205459738</Id>
    <Name>Haim</Name>
    <Phone>0556525977</Phone>
    <Longitude>35.142896</Longitude>
    <Lattitude>32.158842</Lattitude>
  </Customer>
  <Customer>
    <Id>336699885</Id>
    <Name>Dromy</Name>
    <Phone>0505050505</Phone>
    <Longitude>35.225563</Longitude>
    <Lattitude>31.260696</Lattitude>
  </Customer>
  <Customer>
    <Id>252025202</Id>
    <Name>Dimony</Name>
    <Phone>0520520520</Phone>
    <Longitude>35.200605</Longitude>
    <Lattitude>31.042296</Lattitude>
  </Customer>
</ArrayOfCustomer>